[
    {
        "name": "Aaron Tang",
        "type": "image",
        "start": "2013-04-15T12:07:14-04:00",
        "lat": -71.079876,
        "long": 42.349614,
        "url": "http://farm9.staticflickr.com/8533/8653825528_f75206fcba_k.jpg"
    },
    {
        "name": "Aaron Tang",
        "type": "image",
        "start": "2013-04-15T12:07:22-04:00",
        "lat": -71.079876,
        "long": 42.349614,
        "url": "http://farm9.staticflickr.com/8266/8652728665_f9e822bea1_k.jpg"
    },
    {
        "name": "Aaron Tang",
        "type": "image",
        "start": "2013-04-15T12:07:26-04:00",
        "lat": -71.079876,
        "long": 42.349614,
        "url": "http://farm9.staticflickr.com/8393/8652733755_3ffe7f21fe_k.jpg"
    },
    {
        "name": "Aaron Tang",
        "type": "image",
        "start": "2013-04-15T12:07:35-04:00",
        "lat": -71.079876,
        "long": 42.349614,
        "url": "http://farm9.staticflickr.com/8542/8652737289_6db361afa9_k.jpg"
    },
    {
        "name": "Aaron Tang",
        "type": "image",
        "start": "2013-04-15T12:08:06-04:00",
        "lat": -71.079876,
        "long": 42.349614,
        "url": "http://farm9.staticflickr.com/8256/8653847788_57674d8297_k.jpg"
    },
    {
        "name": "Aaron Tang",
        "type": "image",
        "start": "2013-04-15T12:12:07-04:00",
        "lat": -71.079876,
        "long": 42.349614,
        "url": "http://farm9.staticflickr.com/8531/8653862784_05e98b737e_k.jpg"
    },
    {
        "name": "Aaron Tang",
        "type": "image",
        "start": "2013-04-15T12:13:21-04:00",
        "lat": -71.079876,
        "long": 42.349614,
        "url": "http://farm9.staticflickr.com/8104/8652767019_f1dbfb48d8_k.jpg"
    },
    {
        "name": "Aaron Tang",
        "type": "image",
        "start": "2013-04-15T12:18:55-04:00",
        "lat": -71.079876,
        "long": 42.349614,
        "url": "http://farm9.staticflickr.com/8265/8653882942_21be50ff4c_k.jpg"
    },
    {
        "name": "Aaron Tang",
        "type": "image",
        "start": "2013-04-15T13:56:44-04:00",
        "lat": -71.079876,
        "long": 42.349614,
        "url": "http://farm9.staticflickr.com/8535/8652816493_9bb818b313_k.jpg"
    },
    {
        "name": "BBC",
        "type": "image",
        "start": "2013-04-15T14:49:43-04:00",
        "lat": -71.078269,
        "long": 42.349745,
        "url": "http://news.bbcimg.co.uk/media/images/67023000/jpg/_67023063_67023062.jpg"
    },
    {
        "name": "smi23le",
        "type": "image",
        "start": "2013-04-15T14:49:53-04:00",
        "lat": -71.078216,
        "long": 42.349862,
        "url": "http://farm9.staticflickr.com/8521/8652598229_7206d7c298_c.jpg"
    },
    {
        "name": "1LtMike",
        "type": "image",
        "start": "2013-04-15T14:49:54-04:00",
        "lat": -71.0790226,
        "long": 42.349832,
        "url": "http://farm9.staticflickr.com/8538/8678839640_fc5760ae1a_b.jpg"
    },
    {
        "name": "themastercopy",
        "type": "image",
        "start": "2013-04-15T14:49:55-04:00",
        "lat": -71.078216,
        "long": 42.349862,
        "url": "http://themastercopy.files.wordpress.com/2013/04/7d073bb6-e919-49f6-b013-c0e96fc91ab6_marathonblast_g_mega.jpg"
    },
    {
        "name": "Dan Lampariello",
        "type": "image",
        "start": "2013-04-15T14:49:58-04:00",
        "lat": -71.081531,
        "long": 42.348892,
        "url": "http://i.telegraph.co.uk/multimedia/archive/02537/Boston-explosion-m_2537196k.jpg"
    },
    {
        "name": "NekoAngel3Wolf",
        "type": "image",
        "start": "2013-04-15T14:49:58-04:00",
        "lat": -71.081621,
        "long": 42.348954,
        "url": "http://www.totalprosports.com/wp-content/uploads/2013/04/boston-marathon-bomb-explosion-runner-pov.jpg"
    },
    {
        "name": "Aaron Tang",
        "type": "image",
        "start": "2013-04-15T14:50:15-04:00",
        "lat": -71.079876,
        "long": 42.349614,
        "url": "http://farm9.staticflickr.com/8527/8653921886_e6aca43ba8_b.jpg"
    },
    {
        "name": "Aaron Tang",
        "type": "image",
        "start": "2013-04-15T14:50:17-04:00",
        "lat": -71.079876,
        "long": 42.349614,
        "url": "http://farm9.staticflickr.com/8104/8653924130_6a6d75000b_b.jpg"
    },
    {
        "name": "smi23le",
        "type": "image",
        "start": "2013-04-15T14:50:17-04:00",
        "lat": -71.078662,
        "long": 42.349691,
        "url": "http://farm9.staticflickr.com/8250/8653421307_c87af762ee_b.jpg"
    },
    {
        "name": "Aaron Tang",
        "type": "image",
        "start": "2013-04-15T14:50:21-04:00",
        "lat": -71.079876,
        "long": 42.349614,
        "url": "http://farm9.staticflickr.com/8246/8652825435_7e73802a1e_b.jpg"
    },
    {
        "name": "Unknown",
        "type": "image",
        "start": "2013-04-15T14:50:21-04:00",
        "lat": -71.081902,
        "long": 42.348938,
        "url": "http://i.imgur.com/NFPlOCI.jpg"
    },
    {
        "name": "Aaron Tang",
        "type": "image",
        "start": "2013-04-15T14:50:28-04:00",
        "lat": -71.079876,
        "long": 42.349614,
        "url": "http://farm9.staticflickr.com/8256/8652831303_8d797705a8_b.jpg"
    },
    {
        "name": "Aaron Tang",
        "type": "image",
        "start": "2013-04-15T14:50:30-04:00",
        "lat": -71.079876,
        "long": 42.349614,
        "url": "http://farm9.staticflickr.com/8400/8652833509_5eaf11f322_b.jpg"
    },
    {
        "name": "Aaron Tang",
        "type": "image",
        "start": "2013-04-15T14:50:55-04:00",
        "lat": -71.079876,
        "long": 42.349614,
        "url": "http://farm9.staticflickr.com/8243/8652829335_9a6d17d019_b.jpg"
    }
]